DVER,3080,2.4P
$GPRMC,134730.361,A,5540.3220,N,01231.2858,E,1.06,86.57,041112,,,A*55
$GPGGA,134731.361,5540.3252,N,01231.2946,E,1,10,0.8,36.1,M,41.5,M,,0000*6C
$GPGSA,A,3,03,22,06,19,11,14,32,01,28,18,,,1.8,0.8,1.6*3F
$GPRMC,134731.361,A,5540.3252,N,01231.2946,E,1.42,93.80,041112,,,A*51
$GPVTG,93.80,T,,M,1.42,N,2.6,K,A*3C
$GPGGA,134732.000,5540.3244,N,01231.2941,E,1,10,0.8,31.7,M,41.5,M,,0000*6A
$GPGSA,A,3,03,22,06,19,11,14,32,01,28,18,,,1.8,0.8,1.6*3F
$GPGSV,3,1,11,19,65,185,25,11,54,274,22,22,51,072,28,01,37,274,18*7D
$GPGSV,3,2,11,03,35,170,25,14,33,110,26,32,26,212,20,06,24,158,22*77
$GPGSV,3,3,11,28,22,320,19,18,15,055,19,09,07,033,*41
$GPRMC,134732.000,A,5540.3244,N,01231.2941,E,1.75,90.16,041112,,,A*5E
$GPVTG,90.16,T,,M,1.75,N,3.2,K,A*31
$GPGGA,134733.000,5540.3231,N,01231.2938,E,1,10,0.8,24.9,M,41.5,M,,0000*6D
$GPGSA,A,3,03,22,06,19,11,14,32,01,28,18,,,1.8,0.8,1.6*3F
$GPRMC,134733.000,A,5540.3231,N,01231.2938,E,1.83,113.00,041112,,,A*67
$GPVTG,113.00,T,,M,1.83,N,3.4,K,A*03
$GPGGA,134734.000,5540.3233,N,01231.2941,E,1,10,0.8,23.7,M,41.5,M,,0000*6F
$GPGSA,A,3,03,22,06,19,11,14,32,01,28,18,,,1.8,0.8,1.6*3F
$GPRMC,134734.000,A,5540.3233,N,01231.2941,E,1.23,107.22,041112,,,A*63
$GPVTG,107.22,T,,M,1.23,N,2.3,K,A*0A
$GPGGA,134735.000,5540.3232,N,01231.2946,E,1,10,0.8,23.6,M,41.5,M,,0000*69
$GPGSA,A,3,03,22,06,19,11,14,32,01,28,18,,,1.8,0.8,1.6*3F
$GPRMC,134735.000,A,5540.3232,N,01231.2946,E,1.97,88.98,041112,,,A*5C
$GPVTG,88.98,T,,M,1.97,N,3.6,K,A*36
$GPGGA,134736.000,5540.3238,N,01231.2961,E,1,09,1.0,23.7,M,41.5,M,,0000*65
$GPGSA,A,3,03,22,06,19,11,14,32,01,28,,,,2.1,1.0,1.9*3A
$GPRMC,134736.000,A,5540.3238,N,01231.2961,E,2.44,84.72,041112,,,A*55
$GPVTG,84.72,T,,M,2.44,N,4.5,K,A*37
$GPGGA,134737.000,5540.3247,N,01231.2959,E,1,09,1.0,22.6,M,41.5,M,,0000*67
$GPGSA,A,3,03,22,06,19,11,14,32,01,28,,,,2.1,1.0,1.9*3A
$GPGSV,3,1,11,19,65,185,20,11,54,274,21,22,51,072,30,01,37,274,19*73
$GPGSV,3,2,11,03,35,170,25,14,33,110,26,32,26,212,19,06,24,158,22*7D
$GPGSV,3,3,11,28,22,320,26,18,15,055,,09,07,033,*45
$GPRMC,134737.000,A,5540.3247,N,01231.2959,E,2.56,78.18,041112,,,A*5B
$GPVTG,78.18,T,,M,2.56,N,4.7,K,A*39
$GPGGA,134738.000,5540.3246,N,01231.2970,E,1,10,0.8,20.6,M,41.5,M,,0000*61
$GPGSA,A,3,03,22,06,19,11,14,32,01,28,18,,,1.8,0.8,1.6*3F
$GPRMC,134738.000,A,5540.3246,N,01231.2970,E,2.26,97.21,041112,,,A*52
$GPVTG,97.21,T,,M,2.26,N,4.2,K,A*30
$GPGGA,134739.000,5540.3248,N,01231.2980,E,1,10,0.8,20.2,M,41.5,M,,0000*65
$GPGSA,A,3,03,22,06,19,11,14,32,01,28,18,,,1.8,0.8,1.6*3F
$GPRMC,134739.000,A,5540.3248,N,01231.2980,E,2.49,85.26,041112,,,A*5F
$GPVTG,85.26,T,,M,2.49,N,4.6,K,A*39
$GPGGA,134740.000,5540.3248,N,01231.2992,E,1,09,0.9,20.2,M,41.5,M,,0000*61
$GPGSA,A,3,03,22,06,19,11,14,32,28,18,,,,1.9,0.9,1.6*3E
$GPRMC,134740.000,A,5540.3248,N,01231.2992,E,2.02,106.22,041112,,,A*63
$GPVTG,106.22,T,,M,2.02,N,3.7,K,A*0E
$GPGGA,134741.000,5540.3247,N,01231.3001,E,1,08,1.0,19.0,M,41.5,M,,0000*6C
$GPGSA,A,3,03,22,06,19,14,32,28,18,,,,,2.1,1.0,1.8*33
$GPRMC,134741.000,A,5540.3247,N,01231.3001,E,1.94,108.84,041112,,,A*61
$GPVTG,108.84,T,,M,1.94,N,3.6,K,A*01
$GPGGA,134742.000,5540.3245,N,01231.3009,E,1,07,1.0,17.9,M,41.5,M,,0000*6D
$GPGSA,A,3,03,22,19,14,32,28,18,,,,,,2.2,1.0,2.0*3D
$GPGSV,3,1,11,19,65,185,33,11,54,274,,22,51,072,35,01,37,274,*7F
$GPGSV,3,2,11,03,35,170,35,14,33,110,31,32,26,212,28,06,24,158,*78
$GPGSV,3,3,11,28,22,320,25,18,15,055,22,09,07,033,24*40
$GPRMC,134742.000,A,5540.3245,N,01231.3009,E,1.20,128.27,041112,,,A*6C
$GPVTG,128.27,T,,M,1.20,N,2.2,K,A*00
$GPGGA,134743.000,5540.3243,N,01231.3013,E,1,08,1.0,17.6,M,41.5,M,,0000*61
$GPGSA,A,3,03,22,06,19,14,32,28,18,,,,,2.1,1.0,1.8*33
$GPRMC,134743.000,A,5540.3243,N,01231.3013,E,0.65,135.91,041112,,,A*61
$GPVTG,135.91,T,,M,0.65,N,1.2,K,A*02
$GPGGA,134744.000,5540.3241,N,01231.3016,E,1,08,1.0,17.7,M,41.5,M,,0000*60
$GPGSA,A,3,03,22,06,19,14,32,28,18,,,,,2.1,1.0,1.8*33
$GPRMC,134744.000,A,5540.3241,N,01231.3016,E,1.02,153.79,041112,,,A*67
$GPVTG,153.79,T,,M,1.02,N,1.9,K,A*0F
$GPGGA,134745.000,5540.3237,N,01231.3015,E,1,09,0.9,17.6,M,41.5,M,,0000*6B
$GPGSA,A,3,03,22,06,19,01,14,32,28,18,,,,2.0,0.9,1.8*3B
$GPRMC,134745.000,A,5540.3237,N,01231.3015,E,0.90,179.89,041112,,,A*69
$GPVTG,179.89,T,,M,0.90,N,1.7,K,A*0C
$GPGGA,134746.000,5540.3235,N,01231.3012,E,1,09,0.9,17.9,M,41.5,M,,0000*62
$GPGSA,A,3,03,22,06,19,01,14,32,28,18,,,,2.0,0.9,1.8*3B
$GPRMC,134746.000,A,5540.3235,N,01231.3012,E,1.36,204.84,041112,,,A*66
$GPVTG,204.84,T,,M,1.36,N,2.5,K,A*04
$GPGGA,134747.000,5540.3231,N,01231.3010,E,1,09,1.0,17.4,M,41.5,M,,0000*60
$GPGSA,A,3,03,22,06,19,01,14,32,11,28,,,,2.1,1.0,1.9*3A
$GPGSV,3,1,11,19,65,185,31,11,54,274,17,22,51,072,28,01,37,274,15*73
$GPGSV,3,2,11,03,35,170,32,14,33,110,33,32,26,212,24,06,24,158,32*70
$GPGSV,3,3,11,28,22,320,20,18,15,055,,09,07,033,16*44
$GPVTG,174.80,T,,M,1.49,N,2.8,K,A*01
$GPGGA,134748.000,5540.3227,N,01231.3006,E,1,10,0.8,16.5,M,41.5,M,,0000*6E
$GPGSA,A,3,03,22,06,19,01,14,32,11,28,18,,,1.8,0.8,1.6*3F
$GPRMC,134748.000,A,5540.3227,N,01231.3006,E,1.61,203.73,041112,,,A*63
$GPVTG,203.73,T,,M,1.61,N,3.0,K,A*0D
$GPGGA,134749.000,5540.3225,N,01231.2999,E,1,10,0.8,16.3,M,41.5,M,,0000*65
$GPGSA,A,3,03,22,06,19,01,14,32,11,28,18,,,1.8,0.8,1.6*3F
$GPRMC,134749.000,A,5540.3225,N,01231.2999,E,1.25,199.58,041112,,,A*67
$GPVTG,199.58,T,,M,1.25,N,2.3,K,A*06
$GPGGA,134750.000,5540.3221,N,01231.2994,E,1,10,0.8,15.9,M,41.5,M,,0000*6D
$GPGSA,A,3,03,22,06,19,01,14,32,11,28,18,,,1.8,0.8,1.6*3F
$GPRMC,134750.000,A,5540.3221,N,01231.2994,E,1.70,198.71,041112,,,A*6C
$GPVTG,198.71,T,,M,1.70,N,3.1,K,A*0F
$GPGGA,134751.000,5540.3216,N,01231.2991,E,1,10,0.8,15.5,M,41.5,M,,0000*61
$GPGSA,A,3,03,22,06,19,01,14,32,11,28,18,,,1.8,0.8,1.6*3F
$GPRMC,134751.000,A,5540.3216,N,01231.2991,E,1.84,198.52,041112,,,A*66
$GPVTG,198.52,T,,M,1.84,N,3.4,K,A*00
$GPGGA,134752.000,5540.3212,N,01231.2984,E,1,10,0.8,15.3,M,41.5,M,,0000*64
$GPGSA,A,3,03,22,06,19,01,14,32,11,28,18,,,1.8,0.8,1.6*3F
$GPGSV,3,1,12,19,65,185,34,11,54,274,27,22,51,072,29,01,37,274,25*74
$GPGSV,3,2,12,03,35,170,32,14,33,110,30,32,26,212,31,06,24,158,23*74
$GPGSV,3,3,12,28,22,320,24,18,15,055,23,09,07,033,16,33,00,000,23*73
